[
  {
    "name": "Meijer",
    "address": "2253 Randall Rd",
    "city": "Carpentersville",
    "state": "IL",
    "zip": "60110",
    "phone": "(847) 649-1000",
    "website": "https://www.meijer.com",
    "supplierType": "Grocery",
    "forms": [
      "Blocks"
    ],
    "minOrderLbs": 5.0,
    "pricePerLb": 1.69,
    "hours": "6AM\u201312AM",
    "notes": "Seasonal availability; check customer service",
    "featured": false
  },
  {
    "name": "Airgas Store",
    "address": "480 Airport Dr",
    "city": "Elgin",
    "state": "IL",
    "zip": "60123",
    "phone": "(847) 695-3400",
    "website": "https://www.airgas.com",
    "supplierType": "Welding Supply",
    "forms": [
      "Blocks",
      "Pellets"
    ],
    "minOrderLbs": 10.0,
    "pricePerLb": 1.2,
    "hours": "M\u2013F 7AM\u20135PM",
    "notes": "Bulk orders only",
    "featured": false
  },
  {
    "name": "Walmart Supercenter",
    "address": "1410 N State St",
    "city": "Belvidere",
    "state": "IL",
    "zip": "61008",
    "phone": "(815) 544-3900",
    "website": "https://www.walmart.com",
    "supplierType": "Grocery",
    "forms": [
      "Blocks"
    ],
    "minOrderLbs": 5.0,
    "pricePerLb": 1.5,
    "hours": "6AM\u201311PM",
    "notes": "Usually near customer service desk",
    "featured": true
  },
  {
    "name": "CryoCarb \u2013 Rockford (Welder\u2019s Supply)",
    "address": "3485 Brick Dr",
    "city": "Rockford",
    "state": "IL",
    "zip": "61109",
    "phone": "779-208-4055",
    "website": "https://cryocarb.com/retail/",
    "supplierType": "Gas Supplier",
    "forms": [
      "Blocks"
    ],
    "minOrderLbs": 10,
    "pricePerLb": null,
    "hours": "Mon\u2013Fri 7:30AM\u20134:30PM",
    "notes": "Retail dry ice 10 lb+ over-the-counter. See CryoCarb retail page.",
    "featured": true
  },
  {
    "name": "CryoCarb \u2013 Crystal Lake (Welder\u2019s Supply)",
    "address": "189 S Main St",
    "city": "Crystal Lake",
    "state": "IL",
    "zip": "60014",
    "phone": "815-261-9100",
    "website": "https://cryocarb.com/retail/",
    "supplierType": "Gas Supplier",
    "forms": [
      "Blocks"
    ],
    "minOrderLbs": 10,
    "pricePerLb": null,
    "hours": null,
    "notes": "Retail dry ice 10 lb+ over-the-counter. See CryoCarb retail page.",
    "featured": false
  },
  {
    "name": "Chicagoland Dry Ice Co.",
    "address": "705 Martin Dr",
    "city": "South Elgin",
    "state": "IL",
    "zip": "60177",
    "phone": "(847) 888-4885",
    "website": "https://chicagolanddryice.com/",
    "supplierType": "Specialty Ice",
    "forms": [
      "Blocks",
      "Pellets",
      "Slices"
    ],
    "minOrderLbs": 10,
    "pricePerLb": null,
    "hours": "Mon\u2013Fri 8AM\u20133PM",
    "notes": "Dedicated dry ice supplier. Call to confirm hours and pickup.",
    "featured": true
  },
  {
    "name": "Lakeland Dry Ice",
    "address": "21385 W IL Route 60",
    "city": "Mundelein",
    "state": "IL",
    "zip": "60060",
    "phone": "(847) 367-9800",
    "website": "https://www.lakelanddryice.net/",
    "supplierType": "Specialty Ice",
    "forms": [
      "Blocks",
      "Pellets"
    ],
    "minOrderLbs": null,
    "pricePerLb": null,
    "hours": "Mon\u2013Fri 8AM\u20135PM; Sat 8AM\u20131PM",
    "notes": "Commercial & residential dry ice; pickup and shipping available.",
    "featured": false
  },
  {
    "name": "Inboden\u2019s Meat Market",
    "address": "1106 N 1st St",
    "city": "DeKalb",
    "state": "IL",
    "zip": "60115",
    "phone": "(815) 756-5852",
    "website": "https://meatplace.com/",
    "supplierType": "Grocery",
    "forms": [
      "Blocks"
    ],
    "minOrderLbs": null,
    "pricePerLb": null,
    "hours": "Mon\u2013Sat 8AM\u20137PM; Sun CLOSED",
    "notes": "Local source often referenced for dry ice\u2014availability can vary; call ahead.",
    "featured": false
  },
  {
    "name": "Meijer (Sycamore)",
    "address": "541 Puri Pkwy",
    "city": "Sycamore",
    "state": "IL",
    "zip": "60178",
    "phone": "(815) 991-1203",
    "website": "https://www.meijer.com/shopping/store-locator/313.html",
    "supplierType": "Grocery",
    "forms": [
      "Blocks"
    ],
    "minOrderLbs": 5,
    "pricePerLb": null,
    "hours": "Daily 6AM\u201312AM",
    "notes": "Many Meijer locations sell Penguin Brand Dry Ice; call this store to confirm current stock.",
    "featured": false
  },
  {
    "name": "Walmart Supercenter (McHenry)",
    "address": "",
    "city": "McHenry",
    "state": "IL",
    "zip": "",
    "phone": "",
    "website": "https://www.walmart.com",
    "supplierType": "Grocery",
    "forms": [
      "Blocks"
    ],
    "minOrderLbs": null,
    "pricePerLb": null,
    "hours": null,
    "notes": "Local tip: Some Walmart locations carry dry ice seasonally\u2014call this store to confirm stock and minimums.",
    "featured": false
  },
  {
    "name": "Jewel-Osco (Huntley)",
    "address": "",
    "city": "Huntley",
    "state": "IL",
    "zip": "",
    "phone": "",
    "website": "https://www.jewelosco.com",
    "supplierType": "Grocery",
    "forms": [
      "Blocks"
    ],
    "minOrderLbs": null,
    "pricePerLb": null,
    "hours": null,
    "notes": "Availability varies by store\u2014call ahead to confirm dry ice and bag size.",
    "featured": false
  },
  {
    "name": "Walmart Supercenter (Belvidere)",
    "address": "",
    "city": "Belvidere",
    "state": "IL",
    "zip": "",
    "phone": "",
    "website": "https://www.walmart.com",
    "supplierType": "Grocery",
    "forms": [
      "Blocks"
    ],
    "minOrderLbs": null,
    "pricePerLb": null,
    "hours": null,
    "notes": "Seasonal item\u2014ask customer service if dry ice is currently in stock.",
    "featured": false
  }
]